@P5L
$GPRMC,102246.00,A,4454.90988,N,00454.88437,E,002.5,302.3,040413,02.3,W,A*16
$GPGGA,102247.00,4454.91039,N,00454.88440,E,1,05,1.70,00178,M,048,M,,*69
#POKEBALL,86,1,5,112,592,000000,102246,A,454.884,4454.910,178.0,2.5,302.3,5,1.7,54,807,674,638,467
@P5L
$GPRMC,102257.00,A,4454.90909,N,00454.88963,E,001.1,171.9,040413,02.3,W,A*18
$GPGGA,102258.00,4454.90979,N,00454.88805,E,1,04,2.28,00180,M,048,M,,*6E
#POKEBALL,87,1,5,117,598,000000,102257,A,454.890,4454.909,180.0,1.1,171.9,4,2.3,54,807,659,638,466
@P5L
$GPRMC,102308.00,A,4454.90545,N,00454.88747,E,001.8,279.9,040413,02.3,W,A*1D
$GPGGA,102309.00,4454.90497,N,00454.88713,E,1,04,3.72,00194,M,048,M,,*65
#POKEBALL,88,1,5,122,604,000000,102308,A,454.887,4454.906,194.0,1.8,279.9,4,3.7,53,807,661,639,469
@P5L
$GPRMC,102319.00,A,4454.90695,N,00454.88493,E,001.4,148.3,040413,02.3,W,A*1E
$GPGGA,102320.00,4454.90663,N,00454.88459,E,1,04,4.32,00191,M,048,M,,*6C
#POKEBALL,89,1,5,127,610,000000,102319,A,454.885,4454.907,191.0,1.4,148.3,4,4.3,54,807,660,638,467
@P5L
$GPRMC,102402.00,A,4454.93821,N,00454.84414,E,039.2,313.0,040413,02.3,W,A*10
$GPGGA,102403.00,4454.93518,N,00454.84934,E,1,04,2.29,00163,M,048,M,,*6D
#POKEBALL,90,1,5,165,648,000000,102402,A,454.844,4454.938,163.0,39.2,313.0,4,2.3,53,808,661,640,463
@P5L
$GPRMC,102413.00,A,4454.93022,N,00454.85821,E,000.7,312.7,040413,02.3,W,A*19
$GPGGA,102414.00,4454.92969,N,00454.85985,E,1,04,2.29,00170,M,048,M,,*69
#POKEBALL,91,1,5,170,654,000000,102413,A,454.858,4454.930,170.0,0.7,312.7,4,2.3,53,808,661,640,469
@P5L
$GPRMC,102424.00,A,4454.93461,N,00454.85905,E,002.1,115.8,040413,02.3,W,A*17
$GPGGA,102425.00,4454.93310,N,00454.86098,E,1,04,2.76,00171,M,048,M,,*63
#POKEBALL,92,1,5,175,660,000000,102424,A,454.859,4454.935,171.0,2.1,115.8,4,2.8,54,807,660,639,464
@P5L
$GPRMC,102435.00,A,4454.92947,N,00454.86984,E,002.0,350.1,040413,02.3,W,A*1E
$GPGGA,102436.00,4454.93000,N,00454.87000,E,1,06,1.54,00189,M,048,M,,*65
#POKEBALL,93,1,5,180,666,000000,102435,A,454.870,4454.929,189.0,2.0,350.1,6,1.5,54,807,660,639,469
@P5L
$GPRMC,102446.00,A,4454.93299,N,00454.87562,E,003.9,302.8,040413,02.3,W,A*10
$GPGGA,102447.00,4454.93277,N,00454.87630,E,1,06,1.54,00179,M,048,M,,*6B
#POKEBALL,94,1,5,186,672,000000,102446,A,454.876,4454.933,179.0,3.9,302.8,6,1.5,54,808,661,640,469
@P5L
$GPRMC,102457.00,A,4454.93553,N,00454.88439,E,005.6,000.4,040413,02.3,W,A*15
$GPGGA,102458.00,4454.93616,N,00454.88425,E,1,06,1.54,00164,M,048,M,,*63
#POKEBALL,95,1,5,191,678,000000,102457,A,454.884,4454.936,164.0,5.6,0.4,6,1.5,54,808,661,640,466
@P5L
$GPRMC,102508.00,A,4454.93588,N,00454.88756,E,000.4,046.9,040413,02.3,W,A*1A
$GPGGA,102509.00,4454.93604,N,00454.88763,E,1,06,1.54,00156,M,048,M,,*65
#POKEBALL,96,1,5,196,684,000000,102508,A,454.888,4454.936,156.0,0.4,46.9,6,1.5,54,808,661,638,466
@P5L
$GPRMC,102519.00,A,4454.93596,N,00454.88861,E,002.2,000.5,040413,02.3,W,A*14
$GPGGA,102520.00,4454.93549,N,00454.88975,E,1,06,1.54,00155,M,048,M,,*6E
#POKEBALL,97,1,5,202,690,000000,102519,A,454.889,4454.936,155.0,2.2,0.5,6,1.5,53,809,660,638,468
@P5L
$GPRMC,102530.00,A,4454.93481,N,00454.89018,E,000.5,199.8,040413,02.3,W,A*16
$GPGGA,102531.00,4454.93430,N,00454.89032,E,1,06,1.54,00159,M,048,M,,*66
#POKEBALL,98,1,6,0,696,000000,102530,A,454.890,4454.935,159.0,0.5,199.8,6,1.5,53,808,660,638,467
@P6L
$GPRMC,102541.00,A,4454.93228,N,00454.88592,E,001.3,344.8,040413,02.3,W,A*16
$GPGGA,102542.00,4454.93220,N,00454.88497,E,1,06,1.54,00169,M,048,M,,*6C
#POKEBALL,99,1,6,6,702,000000,102541,A,454.886,4454.932,169.0,1.3,344.8,6,1.5,53,807,661,638,468
@P6L
$GPRMC,102552.00,A,4454.93039,N,00454.88327,E,001.1,031.1,040413,02.3,W,A*14
$GPGGA,102553.00,4454.92963,N,00454.88344,E,1,05,1.82,00167,M,048,M,,*6E
#POKEBALL,100,1,6,12,708,000000,102552,A,454.883,4454.930,167.0,1.1,31.1,5,1.8,53,807,660,638,467
@P6L
$GPRMC,102603.00,A,4454.92725,N,00454.88430,E,001.3,025.0,040413,02.3,W,A*1F
$GPGGA,102604.00,4454.92670,N,00454.88452,E,1,06,1.55,00170,M,048,M,,*6D
#POKEBALL,101,1,6,18,714,000000,102603,A,454.884,4454.927,170.0,1.3,25.0,6,1.5,53,808,662,639,466
@P6L
$GPRMC,102614.00,A,4454.92500,N,00454.88589,E,002.0,197.3,040413,02.3,W,A*14
$GPGGA,102615.00,4454.92450,N,00454.88592,E,1,06,1.55,00164,M,048,M,,*65
#POKEBALL,102,1,6,24,720,000000,102614,A,454.886,4454.925,164.0,2.0,197.3,6,1.5,54,808,662,641,469
@P6L
$GPRMC,102625.00,A,4454.92182,N,00454.88707,E,002.6,136.6,040413,02.3,W,A*14
$GPGGA,102626.00,4454.92160,N,00454.88755,E,1,05,1.69,00161,M,048,M,,*63
#POKEBALL,103,1,6,30,726,000000,102625,A,454.887,4454.922,161.0,2.6,136.6,5,1.7,54,807,661,638,464
@P6L
$GPRMC,102636.00,A,4454.92006,N,00454.89230,E,001.0,085.6,040413,02.3,W,A*17
$GPGGA,102637.00,4454.92000,N,00454.89297,E,1,04,9.75,00156,M,048,M,,*6E
#POKEBALL,104,1,6,35,732,000000,102636,A,454.892,4454.920,156.0,1.0,85.6,4,9.8,53,808,662,640,465
@P6L
$GPRMC,102647.00,A,4454.91519,N,00454.90655,E,005.4,124.5,040413,02.3,W,A*1F
$GPGGA,102648.00,4454.91392,N,00454.90763,E,1,06,1.55,00173,M,048,M,,*64
#POKEBALL,105,1,6,40,738,000000,102647,A,454.907,4454.916,173.0,5.4,124.5,6,1.5,53,808,662,639,467
@P6L
$GPRMC,102658.00,A,4454.91007,N,00454.91403,E,002.3,168.6,040413,02.3,W,A*10
$GPGGA,102659.00,4454.90939,N,00454.91483,E,1,05,8.48,00195,M,048,M,,*6C
#POKEBALL,106,1,6,46,744,000000,102658,A,454.914,4454.910,195.0,2.3,168.6,5,8.5,53,808,661,639,467
@P6L
$GPRMC,102709.00,A,4454.91112,N,00454.92544,E,004.4,100.5,040413,02.3,W,A*1D
$GPGGA,102710.00,4454.91176,N,00454.92631,E,1,05,8.57,00186,M,048,M,,*66
#POKEBALL,107,1,6,51,750,000000,102709,A,454.925,4454.911,186.0,4.4,100.5,5,8.6,53,806,660,638,466
@P6L
$GPRMC,102720.00,A,4454.91156,N,00454.93633,E,002.9,126.0,040413,02.3,W,A*1E
$GPGGA,102721.00,4454.91151,N,00454.93641,E,1,04,9.27,00175,M,048,M,,*6C
#POKEBALL,108,1,6,56,756,000000,102720,A,454.936,4454.912,175.0,2.9,126.0,4,9.3,52,807,661,638,465
@P6L
$GPRMC,102731.00,A,4454.90411,N,00454.95511,E,006.2,113.0,040413,02.3,W,A*15
$GPGGA,102732.00,4454.90262,N,00454.95664,E,1,03,3.88,00165,M,048,M,,*64
#POKEBALL,109,1,6,61,762,000000,102731,A,454.955,4454.904,165.0,6.2,113.0,3,3.9,54,807,660,638,468
@P6L
$GPRMC,102742.00,A,4454.90868,N,00454.96993,E,002.2,090.2,040413,02.3,W,A*1A
$GPGGA,102743.00,4454.90865,N,00454.96903,E,1,05,8.84,00115,M,048,M,,*64
#POKEBALL,110,1,6,66,768,000000,102742,A,454.970,4454.909,115.0,2.2,90.2,5,8.8,53,807,661,639,465
@P6L
$GPRMC,102753.00,A,4454.91979,N,00454.97540,E,005.3,327.3,040413,02.3,W,A*11
$GPGGA,102754.00,4454.92061,N,00454.97510,E,1,05,8.93,00043,M,048,M,,*67
#POKEBALL,111,1,6,72,774,000000,102753,A,454.975,4454.919,43.0,5.3,327.3,5,8.9,54,808,661,639,466
@P6L
$GPRMC,102804.00,A,4454.92911,N,00454.97094,E,004.6,335.6,040413,02.3,W,A*1F
$GPGGA,102805.00,4454.92913,N,00454.97104,E,1,04,2.80,00002,M,048,M,,*6D
#POKEBALL,112,1,6,77,780,000000,102804,A,454.971,4454.929,2.0,4.6,335.6,4,2.8,52,807,660,638,468
@P6L
$GPRMC,102815.00,A,4454.93123,N,00454.96344,E,002.8,097.1,040413,02.3,W,A*1C
$GPGGA,102816.00,4454.93075,N,00454.96638,E,1,03,3.89,00005,M,048,M,,*66
#POKEBALL,113,1,6,83,786,000000,102815,A,454.963,4454.931,5.0,2.8,97.1,3,3.9,53,806,661,640,466
@P6L
$GPRMC,102826.00,A,4454.92964,N,00454.96228,E,004.3,074.3,040413,02.3,W,A*1F
$GPGGA,102827.00,4454.92941,N,00454.96237,E,1,05,9.18,00012,M,048,M,,*62
#POKEBALL,114,1,6,88,792,000000,102826,A,454.962,4454.929,12.0,4.3,74.3,5,9.2,54,806,661,640,469
@P6L
$GPRMC,102837.00,A,4454.93852,N,00454.97045,E,002.0,005.5,040413,02.3,W,A*17
$GPGGA,102838.00,4454.93929,N,00454.97153,E,1,04,2.81,00006,M,048,M,,*6C
#POKEBALL,115,1,6,94,798,000000,102837,A,454.970,4454.938,6.0,2.0,5.5,4,2.8,53,807,662,641,466
@P6L
$GPRMC,102848.00,A,4454.94295,N,00454.97954,E,001.4,108.0,040413,02.3,W,A*1E
$GPGGA,102849.00,4454.94381,N,00454.97979,E,1,05,9.34,-00022,M,048,M,,*4A
#POKEBALL,116,1,6,100,804,000000,102848,A,454.979,4454.943,-22.0,1.4,108.0,5,9.3,52,807,662,641,466
@P6L
$GPRMC,102859.00,A,4454.95244,N,00454.98512,E,003.8,058.7,040413,02.3,W,A*1F
$GPGGA,102900.00,4454.95414,N,00454.98622,E,1,05,9.42,-00085,M,048,M,,*4E
#POKEBALL,117,1,6,106,810,000000,102859,A,454.985,4454.953,-85.0,3.8,58.7,5,9.4,53,807,661,640,467
@P6L
$GPRMC,102910.00,A,4454.95598,N,00454.99067,E,003.4,056.2,040413,02.3,W,A*14
$GPGGA,102911.00,4454.95675,N,00454.99193,E,1,03,3.00,-00112,M,048,M,,*42
#POKEBALL,118,1,6,111,816,000000,102910,A,454.991,4454.956,-112.0,3.4,56.2,3,3.0,52,808,662,641,468
@P6L
$GPRMC,102921.00,A,4454.93718,N,00455.07540,E,071.5,114.8,040413,02.3,W,A*15
$GPGGA,102922.00,4454.94552,N,00455.10040,E,1,03,5.20,-00103,M,048,M,,*4E
#POKEBALL,119,1,6,116,822,000000,102921,A,455.075,4454.937,-103.0,71.5,114.8,3,5.2,53,808,660,639,465
@P6L
$GPRMC,102932.00,A,4454.96644,N,00455.17152,E,055.4,297.8,040413,02.3,W,A*13
$GPGGA,102933.00,4454.96840,N,00455.17225,E,1,03,2.99,-00250,M,048,M,,*44
#POKEBALL,120,1,6,121,828,000000,102932,A,455.171,4454.966,-250.0,55.4,297.8,3,3.0,53,808,660,639,467
@P6L
$GPRMC,102943.00,A,4454.97024,N,00455.24240,E,006.0,044.1,040413,02.3,W,A*13
$GPGGA,102944.00,4454.97333,N,00455.24565,E,1,02,1.00,-00382,M,048,M,,*45
#POKEBALL,121,1,6,126,834,000000,102943,A,455.242,4454.970,-382.0,6.0,44.1,2,1.0,53,807,661,640,470
@P6L
$GPRMC,102954.00,A,4455.00101,N,00455.19817,E,004.2,024.5,040413,02.3,W,A*18
$GPGGA,102955.00,4455.00272,N,00455.20053,E,1,03,2.99,-00507,M,048,M,,*43
#POKEBALL,122,1,6,131,839,000000,102954,A,455.198,4455.001,-507.0,4.2,24.5,3,3.0,53,808,659,638,465
@P6L
$GPRMC,103005.00,A,4455.03767,N,00455.15609,E,003.9,020.8,040413,02.3,W,A*19
$GPGGA,103006.00,4455.03943,N,00455.15308,E,1,03,2.98,-00593,M,048,M,,*40
#POKEBALL,123,1,6,136,845,000000,103005,A,455.156,4455.038,-593.0,3.9,20.8,3,3.0,53,808,659,638,465
@P6L
$GPRMC,103016.00,A,4455.04973,N,00455.15996,E,006.9,062.7,040413,02.3,W,A*12
$GPGGA,103017.00,4455.05063,N,00455.16065,E,1,03,2.98,-00644,M,048,M,,*4F
#POKEBALL,124,1,6,141,851,000000,103016,A,455.160,4455.050,-644.0,6.9,62.7,3,3.0,53,807,659,638,465
@P6L
$GPRMC,103027.00,A,4454.92038,N,00454.90026,E,008.5,351.3,040413,02.3,W,A*13
$GPGGA,103028.00,4454.91782,N,00454.89911,E,1,04,2.33,00109,M,048,M,,*6F
#POKEBALL,125,1,6,146,857,000000,103027,A,454.900,4454.920,109.0,8.5,351.3,4,2.3,53,807,660,638,468
@P6L
$GPRMC,103038.00,A,4454.91404,N,00454.89302,E,004.4,200.0,040413,02.3,W,A*13
$GPGGA,103039.00,4454.91426,N,00454.89081,E,1,04,2.33,00121,M,048,M,,*68
#POKEBALL,126,1,6,151,863,000000,103038,A,454.893,4454.914,121.0,4.4,200.0,4,2.3,52,806,660,638,469
@P6L
$GPRMC,103049.00,A,4454.91668,N,00454.88091,E,001.4,131.9,040413,02.3,W,A*18
$GPGGA,103050.00,4454.91705,N,00454.88010,E,1,04,2.33,00123,M,048,M,,*6E
#POKEBALL,127,1,6,156,869,000000,103049,A,454.881,4454.917,123.0,1.4,131.9,4,2.3,52,808,660,639,469
@P6L
$GPRMC,103100.00,A,4454.91494,N,00454.88462,E,001.0,109.5,040413,02.3,W,A*1E
$GPGGA,103101.00,4454.91578,N,00454.88507,E,1,04,2.33,00099,M,048,M,,*60
#POKEBALL,128,1,6,161,875,000000,103100,A,454.885,4454.915,99.0,1.0,109.5,4,2.3,52,807,661,640,465
@P6L
$GPRMC,103111.00,A,4454.91761,N,00454.88428,E,003.8,304.9,040413,02.3,W,A*10
$GPGGA,103112.00,4454.91695,N,00454.88535,E,1,03,2.20,00079,M,048,M,,*68
#POKEBALL,129,1,6,166,881,000000,103111,A,454.884,4454.917,79.0,3.8,304.9,3,2.2,53,808,661,640,465
@P6L
$GPRMC,103122.00,A,4454.92111,N,00454.88666,E,005.4,307.3,040413,02.3,W,A*19
$GPGGA,103123.00,4454.92051,N,00454.88818,E,1,03,2.20,00060,M,048,M,,*6D
#POKEBALL,130,1,6,171,887,000000,103122,A,454.887,4454.921,60.0,5.4,307.3,3,2.2,52,807,665,639,468
@P6L
$GPRMC,103133.00,A,4454.92068,N,00454.89891,E,002.2,130.1,040413,02.3,W,A*14
$GPGGA,103134.00,4454.92029,N,00454.89924,E,1,04,2.34,00079,M,048,M,,*61
#POKEBALL,131,1,6,176,893,000000,103133,A,454.899,4454.921,79.0,2.2,130.1,4,2.3,53,808,667,640,469
@P6L
$GPRMC,103144.00,A,4454.91857,N,00454.90284,E,002.1,148.4,040413,02.3,W,A*1C
$GPGGA,103145.00,4454.91857,N,00454.90366,E,1,03,2.67,00094,M,048,M,,*63
#POKEBALL,132,1,6,182,899,000000,103144,A,454.903,4454.919,94.0,2.1,148.4,3,2.7,52,807,666,640,470
@P6L
$GPRMC,103155.00,A,4454.92052,N,00454.89894,E,000.6,329.7,040413,02.3,W,A*12
$GPGGA,103156.00,4454.92076,N,00454.89914,E,1,05,1.90,00104,M,048,M,,*6B
#POKEBALL,133,1,6,187,905,000000,103155,A,454.899,4454.921,104.0,0.6,329.7,5,1.9,53,808,665,638,465
@P6L
$GPRMC,103206.00,A,4454.92178,N,00454.89662,E,001.0,125.2,040413,02.3,W,A*15
$GPGGA,103207.00,4454.92220,N,00454.89640,E,1,05,1.90,00116,M,048,M,,*60
#POKEBALL,134,1,6,193,911,000000,103206,A,454.897,4454.922,116.0,1.0,125.2,5,1.9,52,808,650,639,470
@P6L
$GPRMC,103217.00,A,4454.92000,N,00454.89157,E,002.0,216.7,040413,02.3,W,A*1F
$GPGGA,103218.00,4454.91907,N,00454.89132,E,1,05,1.90,00138,M,048,M,,*6D
#POKEBALL,135,1,6,198,917,000000,103217,A,454.892,4454.920,138.0,2.0,216.7,5,1.9,53,808,645,640,469
@P6L
$GPRMC,103228.00,A,4454.91741,N,00454.88819,E,001.5,207.5,040413,02.3,W,A*14
$GPGGA,103229.00,4454.91746,N,00454.88773,E,1,05,1.71,00151,M,048,M,,*66
#POKEBALL,136,1,6,203,923,000000,103228,A,454.888,4454.917,151.0,1.5,207.5,5,1.7,53,807,644,639,466
@P6L
$GPRMC,103239.00,A,4454.91747,N,00454.88736,E,000.8,203.9,040413,02.3,W,A*14
$GPGGA,103240.00,4454.91781,N,00454.88753,E,1,05,2.69,00156,M,048,M,,*6D
#POKEBALL,137,1,6,208,929,000000,103239,A,454.887,4454.917,156.0,0.8,203.9,5,2.7,53,807,644,639,469
@P6L
$GPRMC,103250.00,A,4454.91696,N,00454.88706,E,000.6,351.7,040413,02.3,W,A*13
$GPGGA,103251.00,4454.91692,N,00454.88704,E,1,06,1.60,00156,M,048,M,,*65
#POKEBALL,138,1,6,213,935,000000,103250,A,454.887,4454.917,156.0,0.6,351.7,6,1.6,52,806,643,638,467
@P6L
$GPRMC,103301.00,A,4454.91605,N,00454.88864,E,001.8,125.1,040413,02.3,W,A*1F
$GPGGA,103302.00,4454.91555,N,00454.88934,E,1,06,1.60,00155,M,048,M,,*64
#POKEBALL,139,1,6,219,941,000000,103301,A,454.889,4454.916,155.0,1.8,125.1,6,1.6,53,808,644,639,469
@P6L
$GPRMC,103312.00,A,4454.91522,N,00454.89081,E,000.9,186.6,040413,02.3,W,A*17
$GPGGA,103313.00,4454.91530,N,00454.88982,E,1,05,1.92,00150,M,048,M,,*61
#POKEBALL,140,1,6,224,947,000000,103312,A,454.891,4454.916,150.0,0.9,186.6,5,1.9,52,808,645,638,466
@P6L
$GPRMC,103323.00,A,4454.91197,N,00454.89132,E,000.6,166.5,040413,02.3,W,A*14
$GPGGA,103324.00,4454.91280,N,00454.89217,E,1,05,1.92,00148,M,048,M,,*66
#POKEBALL,141,1,6,229,953,000000,103323,A,454.891,4454.912,148.0,0.6,166.5,5,1.9,53,809,643,638,468
@P6L
$GPRMC,103334.00,A,4454.90961,N,00454.89176,E,002.1,258.2,040413,02.3,W,A*1E
$GPGGA,103335.00,4454.90863,N,00454.89294,E,1,05,9.92,00157,M,048,M,,*6D
#POKEBALL,142,1,6,234,959,000000,103334,A,454.892,4454.910,157.0,2.1,258.2,5,9.9,53,808,645,640,466
@P6L
$GPRMC,103345.00,A,4454.91112,N,00454.89375,E,001.3,133.8,040413,02.3,W,A*11
$GPGGA,103346.00,4454.91133,N,00454.89348,E,1,04,10.4,00150,M,048,M,,*65
#POKEBALL,143,1,6,239,965,000000,103345,A,454.894,4454.911,150.0,1.3,133.8,4,10.4,52,808,644,639,467
@P6L
$GPRMC,103356.00,A,4454.91020,N,00454.89770,E,001.7,119.0,040413,02.3,W,A*16
$GPGGA,103357.00,4454.90978,N,00454.89888,E,1,04,10.4,00155,M,048,M,,*61
#POKEBALL,144,1,6,244,971,000000,103356,A,454.898,4454.910,155.0,1.7,119.0,4,10.4,52,808,643,638,466
@P6L
$GPRMC,103407.00,A,4454.90653,N,00454.90959,E,000.9,280.4,040413,02.3,W,A*13
$GPGGA,103408.00,4454.90652,N,00454.90939,E,1,05,9.77,00154,M,048,M,,*64
#POKEBALL,145,1,6,250,977,000000,103407,A,454.910,4454.907,154.0,0.9,280.4,5,9.8,52,807,642,637,469
@P6L
$GPRMC,103418.00,A,4454.90485,N,00454.91277,E,002.0,173.3,040413,02.3,W,A*11
$GPGGA,103419.00,4454.90469,N,00454.91260,E,1,05,9.72,00154,M,048,M,,*6D
#POKEBALL,146,1,6,255,983,000000,103418,A,454.913,4454.905,154.0,2.0,173.3,5,9.7,52,807,642,638,465
@P6L
$GPRMC,103429.00,A,4454.90014,N,00454.90975,E,001.5,267.1,040413,02.3,W,A*15
$GPGGA,103430.00,4454.89951,N,00454.90850,E,1,05,9.66,00176,M,048,M,,*65
#POKEBALL,147,1,6,260,989,000000,103429,A,454.910,4454.900,176.0,1.5,267.1,5,9.7,52,808,645,640,471
@P6L
$GPRMC,103440.00,A,4454.89994,N,00454.90442,E,002.2,222.5,040413,02.3,W,A*1B
$GPGGA,103441.00,4454.89957,N,00454.90362,E,1,04,10.5,00184,M,048,M,,*6E
#POKEBALL,148,1,6,265,995,000000,103440,A,454.904,4454.900,184.0,2.2,222.5,4,10.5,53,808,644,638,466
@P6L
$GPRMC,103451.00,A,4454.89887,N,00454.89812,E,001.7,168.2,040413,02.3,W,A*15
$GPGGA,103452.00,4454.89804,N,00454.89754,E,1,05,9.53,00201,M,048,M,,*66
#POKEBALL,149,1,6,270,1001,000000,103451,A,454.898,4454.899,201.0,1.7,168.2,5,9.5,52,807,645,640,467
@P6L
$GPRMC,103502.00,A,4454.90070,N,00454.88942,E,001.0,175.9,040413,02.3,W,A*1F
$GPGGA,103503.00,4454.90046,N,00454.88915,E,1,03,2.92,00208,M,048,M,,*66
#POKEBALL,150,1,6,275,1006,000000,103502,A,454.889,4454.901,208.0,1.0,175.9,3,2.9,52,808,641,637,469
@P6L
$GPRMC,103513.00,A,4454.90104,N,00454.88429,E,000.5,218.8,040413,02.3,W,A*10
$GPGGA,103514.00,4454.90056,N,00454.88352,E,1,04,10.5,00210,M,048,M,,*6B
#POKEBALL,151,1,6,280,1012,000000,103513,A,454.884,4454.901,210.0,0.5,218.8,4,10.5,52,806,640,636,464
@P6L
$GPRMC,103524.00,A,4454.90339,N,00454.88247,E,001.2,233.2,040413,02.3,W,A*13
$GPGGA,103525.00,4454.90283,N,00454.88185,E,1,04,10.5,00202,M,048,M,,*68
#POKEBALL,152,1,6,285,1018,000000,103524,A,454.882,4454.903,202.0,1.2,233.2,4,10.5,53,807,643,639,470
@P6L
$GPRMC,103535.00,A,4454.89755,N,00454.87579,E,001.7,245.5,040413,02.3,W,A*13
$GPGGA,103536.00,4454.89829,N,00454.87609,E,1,05,9.23,00216,M,048,M,,*6C
#POKEBALL,153,1,6,290,1024,000000,103535,A,454.876,4454.898,216.0,1.7,245.5,5,9.2,52,806,642,638,467
@P6L
$GPRMC,103546.00,A,4454.90095,N,00454.87463,E,001.2,257.1,040413,02.3,W,A*1C
$GPGGA,103547.00,4454.90059,N,00454.87370,E,1,05,9.16,00207,M,048,M,,*60
#POKEBALL,154,1,6,295,1030,000000,103546,A,454.875,4454.901,207.0,1.2,257.1,5,9.2,52,808,643,637,465
@P6L
$GPRMC,103557.00,A,4454.90245,N,00454.87400,E,000.8,187.2,040413,02.3,W,A*10
$GPGGA,103558.00,4454.90258,N,00454.87477,E,1,05,9.08,00204,M,048,M,,*61
#POKEBALL,155,1,6,300,1036,000000,103557,A,454.874,4454.902,204.0,0.8,187.2,5,9.1,51,808,641,636,467
@P6L
$GPRMC,103608.00,A,4454.90563,N,00454.87607,E,002.2,293.3,040413,02.3,W,A*10
$GPGGA,103609.00,4454.90543,N,00454.87491,E,1,04,10.5,00193,M,048,M,,*6A
#POKEBALL,156,1,6,305,1042,000000,103608,A,454.876,4454.906,193.0,2.2,293.3,4,10.5,52,806,643,638,469
@P6L
$GPRMC,103619.00,A,4454.91035,N,00454.87976,E,002.4,001.4,040413,02.3,W,A*16
$GPGGA,103620.00,4454.90990,N,00454.88008,E,1,05,8.91,00180,M,048,M,,*6F
#POKEBALL,157,1,6,310,1048,000000,103619,A,454.880,4454.910,180.0,2.4,1.4,5,8.9,51,807,642,637,469
@P6L
$GPRMC,103630.00,A,4454.91335,N,00454.88437,E,000.9,321.8,040413,02.3,W,A*1B
$GPGGA,103631.00,4454.91380,N,00454.88469,E,1,05,8.83,00164,M,048,M,,*6F
#POKEBALL,158,1,6,315,1054,000000,103630,A,454.884,4454.914,164.0,0.9,321.8,5,8.8,50,808,641,637,467
@P6L
$GPRMC,103641.00,A,4454.91702,N,00454.88710,E,002.6,075.9,040413,02.3,W,A*15
$GPGGA,103642.00,4454.91514,N,00454.88590,E,1,04,10.5,00159,M,048,M,,*6F
#POKEBALL,159,1,6,320,1060,000000,103641,A,454.887,4454.917,159.0,2.6,75.9,4,10.5,50,808,641,636,468
@P6L
$GPRMC,103652.00,A,4454.91058,N,00454.88450,E,002.7,213.2,040413,02.3,W,A*10
$GPGGA,103653.00,4454.91130,N,00454.88438,E,1,04,10.5,00168,M,048,M,,*6C
#POKEBALL,160,1,6,325,1066,000000,103652,A,454.884,4454.911,168.0,2.7,213.2,4,10.5,49,808,642,636,468
@P6L
$GPRMC,103703.00,A,4454.91386,N,00454.88931,E,001.0,322.5,040413,02.3,W,A*1F
$GPGGA,103704.00,4454.91406,N,00454.88882,E,1,04,10.5,00178,M,048,M,,*63
#POKEBALL,161,1,6,330,1072,000000,103703,A,454.889,4454.914,178.0,1.0,322.5,4,10.5,51,808,642,636,465
@P6L
$GPRMC,103714.00,A,4454.91257,N,00454.88826,E,000.7,067.2,040413,02.3,W,A*10
$GPGGA,103715.00,4454.91191,N,00454.88776,E,1,04,10.5,00193,M,048,M,,*69
#POKEBALL,162,1,6,335,1078,000000,103714,A,454.888,4454.913,193.0,0.7,67.2,4,10.5,51,808,642,636,465
@P6L
$GPRMC,103725.00,A,4454.91071,N,00454.88991,E,001.3,150.1,040413,02.3,W,A*1A
$GPGGA,103726.00,4454.91253,N,00454.88998,E,1,04,10.5,00174,M,048,M,,*63
#POKEBALL,163,1,6,340,1084,000000,103725,A,454.890,4454.911,174.0,1.3,150.1,4,10.5,50,807,643,637,469
@P6L
$GPRMC,103736.00,A,4454.91867,N,00454.89524,E,002.6,089.3,040413,02.3,W,A*15
$GPGGA,103737.00,4454.91991,N,00454.89654,E,1,04,10.5,00144,M,048,M,,*6B
#POKEBALL,164,1,6,345,1090,000000,103736,A,454.895,4454.919,144.0,2.6,89.3,4,10.5,51,807,643,637,466
@P6L
$GPRMC,103747.00,A,4454.92325,N,00454.89820,E,000.5,049.4,040413,02.3,W,A*1E
$GPGGA,103748.00,4454.92275,N,00454.89813,E,1,04,10.5,00132,M,048,M,,*6D
#POKEBALL,165,1,6,350,1096,000000,103747,A,454.898,4454.923,132.0,0.5,49.4,4,10.5,51,807,643,637,467
@P6L
$GPRMC,103758.00,A,4454.92071,N,00454.89584,E,001.1,053.0,040413,02.3,W,A*1B
$GPGGA,103759.00,4454.92040,N,00454.89551,E,1,04,10.4,00136,M,048,M,,*67
#POKEBALL,166,1,6,355,1102,000000,103758,A,454.896,4454.921,136.0,1.1,53.0,4,10.4,50,808,645,639,469
@P6L
$GPRMC,103809.00,A,4454.91610,N,00454.89200,E,001.3,318.0,040413,02.3,W,A*17
$GPGGA,103810.00,4454.91586,N,00454.89098,E,1,04,10.4,00153,M,048,M,,*6A
#POKEBALL,167,1,6,360,1108,000000,103809,A,454.892,4454.916,153.0,1.3,318.0,4,10.4,51,808,643,637,468
@P6L
$GPRMC,103820.00,A,4454.91889,N,00454.89665,E,000.4,296.2,040413,02.3,W,A*16
$GPGGA,103821.00,4454.91957,N,00454.89753,E,1,05,7.99,00135,M,048,M,,*6B
#POKEBALL,168,1,6,365,1114,000000,103820,A,454.897,4454.919,135.0,0.4,296.2,5,8.0,50,808,642,636,469
@P6L
$GPRMC,103831.00,A,4454.91514,N,00454.89341,E,000.2,275.0,040413,02.3,W,A*15
$GPGGA,103832.00,4454.91554,N,00454.89394,E,1,05,7.91,00153,M,048,M,,*61
#POKEBALL,169,1,6,371,1119,000000,103831,A,454.893,4454.916,153.0,0.2,275.0,5,7.9,51,807,644,638,468
@P6L
$GPRMC,103842.00,A,4454.91181,N,00454.88815,E,000.7,056.2,040413,02.3,W,A*16
$GPGGA,103843.00,4454.91215,N,00454.88826,E,1,05,7.83,00173,M,048,M,,*67
#POKEBALL,170,1,6,376,1125,000000,103842,A,454.888,4454.912,173.0,0.7,56.2,5,7.8,50,806,644,637,470
@P6L
$GPRMC,103853.00,A,4454.91660,N,00454.89285,E,001.2,109.6,040413,02.3,W,A*17
$GPGGA,103854.00,4454.91646,N,00454.89196,E,1,05,7.75,00151,M,048,M,,*69
#POKEBALL,171,1,6,381,1131,000000,103853,A,454.893,4454.917,151.0,1.2,109.6,5,7.8,49,807,642,636,468
@P6L
$GPRMC,103904.00,A,4454.91729,N,00454.89198,E,001.1,327.7,040413,02.3,W,A*1B
$GPGGA,103905.00,4454.91879,N,00454.89358,E,1,05,7.67,00138,M,048,M,,*62
#POKEBALL,172,1,6,386,1137,000000,103904,A,454.892,4454.917,138.0,1.1,327.7,5,7.7,50,808,645,638,466
@P6L
$GPRMC,103915.00,A,4454.92155,N,00454.90126,E,001.0,333.2,040413,02.3,W,A*19
$GPGGA,103916.00,4454.92159,N,00454.90219,E,1,04,8.44,00120,M,048,M,,*62
#POKEBALL,173,1,6,391,1143,000000,103915,A,454.901,4454.921,120.0,1.0,333.2,4,8.4,50,807,642,636,469
@P6L
$GPRMC,103926.00,A,4454.91908,N,00454.89825,E,000.8,022.1,040413,02.3,W,A*11
$GPGGA,103927.00,4454.91714,N,00454.89679,E,1,05,7.51,00139,M,048,M,,*64
#POKEBALL,174,1,6,396,1149,000000,103926,A,454.898,4454.919,139.0,0.8,22.1,5,7.5,50,808,644,637,465
@P6L
$GPRMC,103937.00,A,4454.91631,N,00454.89901,E,002.0,133.3,040413,02.3,W,A*1A
$GPGGA,103938.00,4454.91581,N,00454.89820,E,1,05,7.43,00142,M,048,M,,*69
#POKEBALL,175,1,6,402,1155,000000,103937,A,454.899,4454.916,142.0,2.0,133.3,5,7.4,52,808,643,637,466
@P6L
$GPRMC,103948.00,A,4454.91666,N,00454.90037,E,001.2,119.4,040413,02.3,W,A*1A
$GPGGA,103949.00,4454.91746,N,00454.89951,E,1,05,7.36,00134,M,048,M,,*62
#POKEBALL,176,1,6,407,1161,000000,103948,A,454.900,4454.917,134.0,1.2,119.4,5,7.4,50,806,644,638,466
@P6L
$GPRMC,103959.00,A,4454.92321,N,00454.89982,E,000.2,054.9,040413,02.3,W,A*14
$GPGGA,104000.00,4454.92341,N,00454.89966,E,1,04,8.04,00117,M,048,M,,*6B
#POKEBALL,177,1,6,412,1167,000000,103959,A,454.900,4454.923,117.0,0.2,54.9,4,8.0,51,808,644,638,467
@P6L
$GPRMC,104010.00,A,4454.92940,N,00454.90266,E,000.7,356.0,040413,02.3,W,A*1E
$GPGGA,104011.00,4454.92953,N,00454.90188,E,1,05,7.21,00095,M,048,M,,*60
#POKEBALL,178,1,6,417,1173,000000,104010,A,454.903,4454.929,95.0,0.7,356.0,5,7.2,51,806,644,638,467
@P6L
$GPRMC,104021.00,A,4454.93285,N,00454.90217,E,004.2,311.5,040413,02.3,W,A*1E
$GPGGA,104022.00,4454.93276,N,00454.90159,E,1,04,10.2,00088,M,048,M,,*6B
#POKEBALL,179,1,6,422,1179,000000,104021,A,454.902,4454.933,88.0,4.2,311.5,4,10.2,51,806,655,638,470
@P6L
$GPRMC,104032.00,A,4454.93297,N,00454.90092,E,001.9,331.3,040413,02.3,W,A*1A
$GPGGA,104033.00,4454.93393,N,00454.90100,E,1,05,7.06,00087,M,048,M,,*61
#POKEBALL,180,1,6,427,1185,000000,104032,A,454.901,4454.933,87.0,1.9,331.3,5,7.1,51,807,652,637,465
@P6L
$GPRMC,104043.00,A,4454.93357,N,00454.89818,E,001.4,262.4,040413,02.3,W,A*1E
$GPGGA,104044.00,4454.93152,N,00454.89600,E,1,05,6.99,00098,M,048,M,,*68
#POKEBALL,181,1,6,433,1191,000000,104043,A,454.898,4454.933,98.0,1.4,262.4,5,7.0,51,808,654,638,467
@P6L
$GPRMC,104054.00,A,4454.93979,N,00454.90052,E,004.9,312.3,040413,02.3,W,A*19
$GPGGA,104055.00,4454.94104,N,00454.90045,E,1,05,6.92,00063,M,048,M,,*6C
#POKEBALL,182,1,6,438,1197,000000,104054,A,454.900,4454.940,63.0,4.9,312.3,5,6.9,52,807,652,638,467
@P6L
$GPRMC,104105.00,A,4454.94528,N,00454.89813,E,001.7,010.5,040413,02.3,W,A*1A
$GPGGA,104106.00,4454.94555,N,00454.89983,E,1,05,6.85,00048,M,048,M,,*6F
#POKEBALL,183,1,6,443,1203,000000,104105,A,454.898,4454.945,48.0,1.7,10.5,5,6.8,50,807,653,638,467
@P6L
$GPRMC,104116.00,A,4454.94431,N,00454.90315,E,000.6,051.9,040413,02.3,W,A*1D
$GPGGA,104117.00,4454.94523,N,00454.90391,E,1,05,6.78,00051,M,048,M,,*65
#POKEBALL,184,1,6,448,1209,000000,104116,A,454.903,4454.944,51.0,0.6,51.9,5,6.8,51,806,654,639,466
@P6L
$GPRMC,104127.00,A,4454.94538,N,00454.90233,E,002.0,314.0,040413,02.3,W,A*1D
$GPGGA,104128.00,4454.94530,N,00454.90223,E,1,05,6.72,00057,M,048,M,,*6F
#POKEBALL,185,1,6,453,1215,000000,104127,A,454.902,4454.945,57.0,2.0,314.0,5,6.7,50,807,653,638,468
@P6L
$GPRMC,104138.00,A,4454.93934,N,00454.89825,E,001.3,312.8,040413,02.3,W,A*1F
$GPGGA,104139.00,4454.93709,N,00454.89762,E,1,05,6.65,00084,M,048,M,,*60
#POKEBALL,186,1,6,458,1221,000000,104138,A,454.898,4454.939,84.0,1.3,312.8,5,6.6,51,806,651,636,469
@P6L
$GPRMC,104149.00,A,4454.93545,N,00454.90263,E,003.7,307.6,040413,02.3,W,A*1F
$GPGGA,104150.00,4454.93839,N,00454.90350,E,1,05,6.59,00073,M,048,M,,*69
#POKEBALL,187,1,6,463,1227,000000,104149,A,454.903,4454.935,73.0,3.7,307.6,5,6.6,50,807,646,636,468
@P6L
$GPRMC,104200.00,A,4454.93669,N,00454.91158,E,001.0,125.9,040413,02.3,W,A*1E
$GPGGA,104201.00,4454.93567,N,00454.91090,E,1,04,9.89,00074,M,048,M,,*62
#POKEBALL,188,1,6,468,1233,000000,104200,A,454.912,4454.937,74.0,1.0,125.9,4,9.9,50,807,646,635,466
@P6L
$GPRMC,104211.00,A,4454.92246,N,00454.90211,E,003.0,170.3,040413,02.3,W,A*11
$GPGGA,104212.00,4454.92196,N,00454.90208,E,1,03,2.85,00119,M,048,M,,*63
#POKEBALL,189,1,6,473,1239,000000,104211,A,454.902,4454.922,119.0,3.0,170.3,3,2.8,50,808,646,636,468
@P6L
$GPRMC,104222.00,A,4454.91701,N,00454.89672,E,002.1,207.3,040413,02.3,W,A*1E
$GPGGA,104223.00,4454.91852,N,00454.89757,E,1,05,6.40,00132,M,048,M,,*66
#POKEBALL,190,1,6,478,1245,000000,104222,A,454.897,4454.917,132.0,2.1,207.3,5,6.4,50,807,647,636,469
@P6L
$GPRMC,104233.00,A,4454.91887,N,00454.89608,E,001.0,204.2,040413,02.3,W,A*12
$GPGGA,104234.00,4454.91880,N,00454.89702,E,1,05,6.34,00130,M,048,M,,*6E
#POKEBALL,191,1,6,483,1251,000000,104233,A,454.896,4454.919,130.0,1.0,204.2,5,6.3,50,807,648,638,469
@P6L
$GPRMC,104244.00,A,4454.91905,N,00454.89629,E,002.0,246.4,040413,02.3,W,A*19
$GPGGA,104245.00,4454.91898,N,00454.89616,E,1,04,9.75,00125,M,048,M,,*6A
#POKEBALL,192,1,6,488,1257,000000,104244,A,454.896,4454.919,125.0,2.0,246.4,4,9.8,50,807,647,637,469
@P6L
$GPRMC,104255.00,A,4454.91753,N,00454.89264,E,000.6,209.2,040413,02.3,W,A*10
$GPGGA,104256.00,4454.91733,N,00454.89090,E,1,05,6.22,00133,M,048,M,,*65
#POKEBALL,193,1,6,494,1262,000000,104255,A,454.893,4454.917,133.0,0.6,209.2,5,6.2,50,807,646,635,467
@P6L
$GPRMC,104306.00,A,4454.91636,N,00454.88935,E,004.0,011.5,040413,02.3,W,A*15
$GPGGA,104307.00,4454.91546,N,00454.88929,E,1,04,6.48,00143,M,048,M,,*60
#POKEBALL,194,1,6,499,1268,000000,104306,A,454.889,4454.917,143.0,4.0,11.5,4,6.5,50,807,646,636,468
@P6L
$GPRMC,104317.00,A,4454.91385,N,00454.88774,E,000.5,318.2,040413,02.3,W,A*1F
$GPGGA,104318.00,4454.91517,N,00454.88438,E,1,04,6.84,00149,M,048,M,,*6D
#POKEBALL,195,1,6,504,1274,000000,104317,A,454.888,4454.914,149.0,0.5,318.2,4,6.8,50,808,648,637,467
@P6L
$GPRMC,104328.00,A,4454.91554,N,00454.87932,E,001.0,277.7,040413,02.3,W,A*13
$GPGGA,104329.00,4454.91413,N,00454.87838,E,1,04,6.93,00162,M,048,M,,*66
#POKEBALL,196,1,6,509,1280,000000,104328,A,454.879,4454.916,162.0,1.0,277.7,4,6.9,50,808,647,638,467
@P6L
$GPRMC,104339.00,A,4454.91529,N,00454.87755,E,001.3,100.0,040413,02.3,W,A*11
$GPGGA,104340.00,4454.91586,N,00454.87792,E,1,05,6.00,00162,M,048,M,,*60
#POKEBALL,197,1,6,514,1286,000000,104339,A,454.878,4454.916,162.0,1.3,100.0,5,6.0,50,807,648,637,463
@P6L
$GPRMC,104350.00,A,4454.90226,N,00454.84731,E,003.9,249.7,040413,02.3,W,A*17
$GPGGA,104351.00,4454.90191,N,00454.84465,E,1,05,5.95,00254,M,048,M,,*62
#POKEBALL,198,1,6,519,1292,000000,104350,A,454.847,4454.902,254.0,3.9,249.7,5,5.9,49,807,646,636,468
@P6L
$GPRMC,104401.00,A,4454.90499,N,00454.84479,E,003.6,186.4,040413,02.3,W,A*15
$GPGGA,104402.00,4454.90481,N,00454.84510,E,1,03,2.56,00252,M,048,M,,*6C
#POKEBALL,199,1,6,524,1298,000000,104401,A,454.845,4454.905,252.0,3.6,186.4,3,2.6,49,806,647,637,468
@P6L
$GPRMC,104412.00,A,4454.90748,N,00454.84638,E,002.3,223.4,040413,02.3,W,A*17
$GPGGA,104413.00,4454.91114,N,00454.84970,E,1,05,5.84,00242,M,048,M,,*61
#POKEBALL,200,1,6,529,1304,000000,104412,A,454.846,4454.908,242.0,2.3,223.4,5,5.8,48,808,648,637,468
@P6L
$GPRMC,104423.00,A,4454.89938,N,00454.84153,E,002.1,174.7,040413,02.3,W,A*1E
$GPGGA,104424.00,4454.89468,N,00454.83740,E,1,05,5.79,00301,M,048,M,,*6C
#POKEBALL,201,1,6,534,1310,000000,104423,A,454.842,4454.899,301.0,2.1,174.7,5,5.8,49,808,646,635,467
@P6L
$GPRMC,104434.00,A,4454.91088,N,00454.85105,E,001.4,269.7,040413,02.3,W,A*18
$GPGGA,104435.00,4454.91246,N,00454.85333,E,1,05,5.74,00234,M,048,M,,*63
#POKEBALL,202,1,6,539,1316,000000,104434,A,454.851,4454.911,234.0,1.4,269.7,5,5.7,49,808,646,636,467
@P6L
$GPRMC,104445.00,A,4454.91416,N,00454.84757,E,009.1,356.5,040413,02.3,W,A*1F
$GPGGA,104446.00,4454.91424,N,00454.84705,E,1,04,6.08,00270,M,048,M,,*6C
#POKEBALL,203,1,6,544,1322,000000,104445,A,454.848,4454.914,270.0,9.1,356.5,4,6.1,48,808,649,637,467
@P6L
$GPRMC,104456.00,A,4454.91985,N,00454.85533,E,000.5,318.8,040413,02.3,W,A*11
$GPGGA,104457.00,4454.92054,N,00454.85578,E,1,04,6.04,00264,M,048,M,,*6C
#POKEBALL,204,1,6,549,1328,000000,104456,A,454.855,4454.920,264.0,0.5,318.8,4,6.0,48,808,646,636,467
@P6L
$GPRMC,104507.00,A,4454.92202,N,00454.85845,E,002.5,279.2,040413,02.3,W,A*11
$GPGGA,104508.00,4454.92389,N,00454.85890,E,1,05,5.60,00233,M,048,M,,*6D
#POKEBALL,205,1,6,554,1334,000000,104507,A,454.858,4454.922,233.0,2.5,279.2,5,5.6,48,808,646,635,468
@P6L
$GPRMC,104518.00,A,4454.92288,N,00454.86246,E,001.0,116.5,040413,02.3,W,A*1C
$GPGGA,104519.00,4454.92507,N,00454.86551,E,1,05,5.56,00217,M,048,M,,*6D
#POKEBALL,206,1,6,559,1340,000000,104518,A,454.862,4454.923,217.0,1.0,116.5,5,5.6,48,806,648,637,470
@P6L
$GPRMC,104529.00,A,4454.93025,N,00454.87965,E,002.3,114.4,040413,02.3,W,A*12
$GPGGA,104530.00,4454.93039,N,00454.88045,E,1,05,5.51,00188,M,048,M,,*63
#POKEBALL,207,1,6,564,1346,000000,104529,A,454.880,4454.930,188.0,2.3,114.4,5,5.5,48,806,645,635,468
@P6L
$GPRMC,104540.00,A,4454.92597,N,00454.87787,E,001.1,274.4,040413,02.3,W,A*16
$GPGGA,104541.00,4454.92844,N,00454.88048,E,1,05,5.47,00182,M,048,M,,*66
#POKEBALL,208,1,6,569,1352,000000,104540,A,454.878,4454.926,182.0,1.1,274.4,5,5.5,48,806,647,636,468
@P6L
$GPRMC,104551.00,A,4454.92946,N,00454.88384,E,001.7,238.1,040413,02.3,W,A*15
$GPGGA,104552.00,4454.92802,N,00454.88121,E,1,05,5.43,00170,M,048,M,,*61
#POKEBALL,209,1,6,574,1358,000000,104551,A,454.884,4454.929,170.0,1.7,238.1,5,5.4,48,808,645,635,469
@P6L
$GPRMC,104602.00,A,4454.92285,N,00454.87970,E,001.8,122.6,040413,02.3,W,A*1A
$GPGGA,104603.00,4454.92250,N,00454.88041,E,1,04,15.2,00181,M,048,M,,*67
#POKEBALL,210,1,6,579,1364,000000,104602,A,454.880,4454.923,181.0,1.8,122.6,4,15.2,48,807,645,635,468
@P6L
$GPRMC,104613.00,A,4454.91409,N,00454.87430,E,001.0,058.3,040413,02.3,W,A*13
$GPGGA,104614.00,4454.91234,N,00454.87223,E,1,05,5.34,00214,M,048,M,,*63
#POKEBALL,211,1,6,584,1369,000000,104613,A,454.874,4454.914,214.0,1.0,58.3,5,5.3,47,807,645,634,469
@P6L
$GPRMC,104624.00,A,4454.90758,N,00454.87412,E,003.0,207.0,040413,02.3,W,A*18
